{"type":"FeatureCollection","version":"draft","features":[{"type":"Feature","geometry":{"type":"Point","coordinates":[2.32557,48.830378]},"properties":{"label":"202 Avenue du Maine 75014 Paris","score":0.9814127272727271,"housenumber":"202","id":"75114_5922_00202","name":"202 Avenue du Maine","postcode":"75014","citycode":"75114","x":650490.25,"y":6859136,"city":"Paris","district":"Paris 14e Arrondissement","context":"75, Paris, Île-de-France","type":"housenumber","importance":0.79554,"street":"Avenue du Maine"}},{"type":"Feature","geometry":{"type":"Point","coordinates":[2.320645,48.842565]},"properties":{"label":"Avenue du Maine 75015 Paris","score":0.7508036363636363,"id":"75115_5922","name":"Avenue du Maine","postcode":"75015","citycode":"75115","x":650140.37,"y":6860494.16,"city":"Paris","district":"Paris 15e Arrondissement","context":"75, Paris, Île-de-France","type":"street","importance":0.75884,"street":"Avenue du Maine"}},{"type":"Feature","geometry":{"type":"Point","coordinates":[2.322976,48.840589]},"properties":{"label":"Rue du Maine 75014 Paris","score":0.5854418181818182,"id":"75114_5923","name":"Rue du Maine","postcode":"75014","citycode":"75114","x":650309.56,"y":6860272.98,"city":"Paris","district":"Paris 14e Arrondissement","context":"75, Paris, Île-de-France","type":"street","importance":0.67986,"street":"Rue du Maine"}},{"type":"Feature","geometry":{"type":"Point","coordinates":[-0.106642,47.547891]},"properties":{"label":"Avenue de Paris 49150 Baugé-en-Anjou","score":0.4735209090909091,"id":"49018_1460","name":"Avenue de Paris","postcode":"49150","citycode":"49018","oldcitycode":"49018","x":466391.88,"y":6720987.05,"city":"Baugé-en-Anjou","oldcity":"Baugé","context":"49, Maine-et-Loire, Pays de la Loire","type":"street","importance":0.52873,"street":"Avenue de Paris"}},{"type":"Feature","geometry":{"type":"Point","coordinates":[-0.953365,47.06474]},"properties":{"label":"Avenue de paris 49280 La Séguinière","score":0.4722381818181818,"id":"49332_0281","name":"Avenue de paris","postcode":"49280","citycode":"49332","x":400082.99,"y":6670231.01,"city":"La Séguinière","context":"49, Maine-et-Loire, Pays de la Loire","type":"street","importance":0.51462,"street":"Avenue de paris"}}],"attribution":"BAN","licence":"ETALAB-2.0","query":"202 avenue du Maine Paris","limit":5}